{
  "businesses": [
    {
      "tags": [
        6
      ],
      "type": 0,
      "longitude": -74.043139,
      "latitude": 4.863902,
      "name": "El Sitio",
      "hours": "Lunes a Jueves: 06:00 a.m. - 08:30 p.m. \nViernes y Sábados: 06:00 a.m. - 09:00 p.m. \nDomingos y Festivos: 09:00 a.m. - 08:00 p.m.",
      "address": "Calle 32 # 75 - 65",
      "webpage": "point.eco.co",
      "phone": "320 756 9056\n600 3592",
      "image": "https://media-cdn.tripadvisor.com/media/photo-s/0e/cc/0a/dc/restaurant-chocolat.jpg"
    },
    {
      "tags": [
        5
      ],
      "type": 1,
      "longitude": -74.064813,
      "latitude": 4.700603,
      "name": "El Sitio",
      "hours": "Lunes a Jueves: 06:00 a.m. - 08:30 p.m. \nViernes y Sábados: 06:00 a.m. - 09:00 p.m. \nDomingos y Festivos: 09:00 a.m. - 08:00 p.m.",
      "address": "Calle 32 # 75 - 65",
      "webpage": "point.eco.co",
      "phone": "320 756 9056\n600 3592",
      "image": "https://s-ec.bstatic.com/images/hotel/max1024x768/681/68184730.jpg"
    },
    {
      "tags": [
        1, 9, 7, 8, 5
      ],
      "type": 2,
      "longitude": -74.035646,
      "latitude": 4.724898,
      "name": "El Sitio",
      "hours": "Lunes a Jueves: 06:00 a.m. - 08:30 p.m. \nViernes y Sábados: 06:00 a.m. - 09:00 p.m. \nDomingos y Festivos: 09:00 a.m. - 08:00 p.m.",
      "address": "Calle 32 # 75 - 65",
      "webpage": "point.eco.co",
      "phone": "320 756 9056\n600 3592",
      "image": "https://www.retailgazette.co.uk/wp/wp-content/uploads/UNP-McCann-39838-Aldi-Balham.001-1.jpg"
    },
    {
      "tags": [
        0, 4, 1
      ],
      "type": 3,
      "longitude": -74.081935,
      "latitude": 4.696860,
      "name": "El Sitio",
      "hours": "Lunes a Jueves: 06:00 a.m. - 08:30 p.m. \nViernes y Sábados: 06:00 a.m. - 09:00 p.m. \nDomingos y Festivos: 09:00 a.m. - 08:00 p.m.",
      "address": "Calle 32 # 75 - 65",
      "webpage": "point.eco.co",
      "phone": "320 756 9056\n600 3592",
      "image": "https://experienceluxury.co/wp-content/uploads/2016/08/private-cinema.jpg"
    },
    {
      "tags": [
        3, 9, 1, 0
      ],
      "type": 4,
      "longitude": -74.033560,
      "latitude": 4.776551,
      "name": "El Sitio",
      "hours": "Lunes a Jueves: 06:00 a.m. - 08:30 p.m. \nViernes y Sábados: 06:00 a.m. - 09:00 p.m. \nDomingos y Festivos: 09:00 a.m. - 08:00 p.m.",
      "address": "Calle 32 # 75 - 65",
      "webpage": "point.eco.co",
      "phone": "320 756 9056\n600 3592",
      "image": "https://static1.squarespace.com/static/5ba17396b98a786c7d2546e1/t/5bc8c329419202d82ffdf5de/1539883830990/Natura-FredWatford04-edit.jpg"
    },
    {
      "tags": [
        3, 6, 5, 8
      ],
      "type": 5,
      "longitude": -74.018269,
      "latitude": 4.928805,
      "name": "El Sitio",
      "hours": "Lunes a Jueves: 06:00 a.m. - 08:30 p.m. \nViernes y Sábados: 06:00 a.m. - 09:00 p.m. \nDomingos y Festivos: 09:00 a.m. - 08:00 p.m.",
      "address": "Calle 32 # 75 - 65",
      "webpage": "point.eco.co",
      "phone": "320 756 9056\n600 3592",
      "image": "https://whyy.org/wp-content/uploads/2018/05/owner-jp-teti-stands-behind-the-basement-bar-at-passyunk-avenue-a-philly-themed-dive-bar-in-london.original-e1526133272703-768x462.jpg"
    },
    {
      "tags": [
        2
      ],
      "type": 0,
      "longitude": -74.052391,
      "latitude": 4.640596,
      "name": "El Sitio",
      "hours": "Lunes a Jueves: 06:00 a.m. - 08:30 p.m. \nViernes y Sábados: 06:00 a.m. - 09:00 p.m. \nDomingos y Festivos: 09:00 a.m. - 08:00 p.m.",
      "address": "Calle 32 # 75 - 65",
      "webpage": "point.eco.co",
      "phone": "320 756 9056\n600 3592",
      "image": "https://media-cdn.tripadvisor.com/media/photo-s/0e/cc/0a/dc/restaurant-chocolat.jpg"
    },
    {
      "tags": [
        2, 7
      ],
      "type": 1,
      "longitude": -73.962493,
      "latitude": 4.733665,
      "name": "El Sitio",
      "hours": "Lunes a Jueves: 06:00 a.m. - 08:30 p.m. \nViernes y Sábados: 06:00 a.m. - 09:00 p.m. \nDomingos y Festivos: 09:00 a.m. - 08:00 p.m.",
      "address": "Calle 32 # 75 - 65",
      "webpage": "point.eco.co",
      "phone": "320 756 9056\n600 3592",
      "image": "https://s-ec.bstatic.com/images/hotel/max1024x768/681/68184730.jpg"
    },
    {
      "tags": [
        6, 0, 7, 5
      ],
      "type": 2,
      "longitude": -74.064370,
      "latitude": 4.614434,
      "name": "El Sitio",
      "hours": "Lunes a Jueves: 06:00 a.m. - 08:30 p.m. \nViernes y Sábados: 06:00 a.m. - 09:00 p.m. \nDomingos y Festivos: 09:00 a.m. - 08:00 p.m.",
      "address": "Calle 32 # 75 - 65",
      "webpage": "point.eco.co",
      "phone": "320 756 9056\n600 3592",
      "image": "https://www.retailgazette.co.uk/wp/wp-content/uploads/UNP-McCann-39838-Aldi-Balham.001-1.jpg"
    },
    {
      "tags": [
        0
      ],
      "type": 3,
      "longitude": -74.079520,
      "latitude": 4.641321,
      "name": "El Sitio",
      "hours": "Lunes a Jueves: 06:00 a.m. - 08:30 p.m. \nViernes y Sábados: 06:00 a.m. - 09:00 p.m. \nDomingos y Festivos: 09:00 a.m. - 08:00 p.m.",
      "address": "Calle 32 # 75 - 65",
      "webpage": "point.eco.co",
      "phone": "320 756 9056\n600 3592",
      "image": "https://experienceluxury.co/wp-content/uploads/2016/08/private-cinema.jpg"
    },
    {
      "tags": [
        2, 6, 3, 4
      ],
      "type": 4,
      "longitude": -74.080674,
      "latitude": 4.700000,
      "name": "El Sitio",
      "hours": "Lunes a Jueves: 06:00 a.m. - 08:30 p.m. \nViernes y Sábados: 06:00 a.m. - 09:00 p.m. \nDomingos y Festivos: 09:00 a.m. - 08:00 p.m.",
      "address": "Calle 32 # 75 - 65",
      "webpage": "point.eco.co",
      "phone": "320 756 9056\n600 3592",
      "image": "https://static1.squarespace.com/static/5ba17396b98a786c7d2546e1/t/5bc8c329419202d82ffdf5de/1539883830990/Natura-FredWatford04-edit.jpg"
    },
    {
      "tags": [
        2, 0
      ],
      "type": 5,
      "longitude": -74.066507,
      "latitude": 4.734816,
      "name": "El Sitio",
      "hours": "Lunes a Jueves: 06:00 a.m. - 08:30 p.m. \nViernes y Sábados: 06:00 a.m. - 09:00 p.m. \nDomingos y Festivos: 09:00 a.m. - 08:00 p.m.",
      "address": "Calle 32 # 75 - 65",
      "webpage": "point.eco.co",
      "phone": "320 756 9056\n600 3592",
      "image": "https://whyy.org/wp-content/uploads/2018/05/owner-jp-teti-stands-behind-the-basement-bar-at-passyunk-avenue-a-philly-themed-dive-bar-in-london.original-e1526133272703-768x462.jpg"
    },
    {
      "tags": [
        0, 4, 3, 9
      ],
      "type": 0,
      "longitude": -74.03489,
      "latitude": 4.8349,
      "name": "El Sitio",
      "hours": "Lunes a Jueves: 06:00 a.m. - 08:30 p.m. \nViernes y Sábados: 06:00 a.m. - 09:00 p.m. \nDomingos y Festivos: 09:00 a.m. - 08:00 p.m.",
      "address": "Calle 32 # 75 - 65",
      "webpage": "point.eco.co",
      "phone": "320 756 9056\n600 3592",
      "image": "https://media-cdn.tripadvisor.com/media/photo-s/0e/cc/0a/dc/restaurant-chocolat.jpg"
    },
    {
      "tags": [
        0, 9, 4, 5
      ],
      "type": 1,
      "longitude": -74.034890,
      "latitude": 4.700603,
      "name": "El Sitio",
      "hours": "Lunes a Jueves: 06:00 a.m. - 08:30 p.m. \nViernes y Sábados: 06:00 a.m. - 09:00 p.m. \nDomingos y Festivos: 09:00 a.m. - 08:00 p.m.",
      "address": "Calle 32 # 75 - 65",
      "webpage": "point.eco.co",
      "phone": "320 756 9056\n600 3592",
      "image": "https://s-ec.bstatic.com/images/hotel/max1024x768/681/68184730.jpg"
    },
    {
      "tags": [
        4, 8, 3, 2, 9
      ],
      "type": 2,
      "longitude": -74.03489,
      "latitude": 4.793285,
      "name": "El Sitio",
      "hours": "Lunes a Jueves: 06:00 a.m. - 08:30 p.m. \nViernes y Sábados: 06:00 a.m. - 09:00 p.m. \nDomingos y Festivos: 09:00 a.m. - 08:00 p.m.",
      "address": "Calle 32 # 75 - 65",
      "webpage": "point.eco.co",
      "phone": "320 756 9056\n600 3592",
      "image": "https://www.retailgazette.co.uk/wp/wp-content/uploads/UNP-McCann-39838-Aldi-Balham.001-1.jpg"
    },
    {
      "tags": [
        5, 1, 3, 4, 8
      ],
      "type": 3,
      "longitude": -74.0530948,
      "latitude": 4.68320,
      "name": "El Sitio",
      "hours": "Lunes a Jueves: 06:00 a.m. - 08:30 p.m. \nViernes y Sábados: 06:00 a.m. - 09:00 p.m. \nDomingos y Festivos: 09:00 a.m. - 08:00 p.m.",
      "address": "Calle 32 # 75 - 65",
      "webpage": "point.eco.co",
      "phone": "320 756 9056\n600 3592",
      "image": "https://experienceluxury.co/wp-content/uploads/2016/08/private-cinema.jpg"
    },
    {
      "tags": [
        6, 2, 9, 4
      ],
      "type": 4,
      "longitude": -74.034809,
      "latitude": 4.780934,
      "name": "El Sitio",
      "hours": "Lunes a Jueves: 06:00 a.m. - 08:30 p.m. \nViernes y Sábados: 06:00 a.m. - 09:00 p.m. \nDomingos y Festivos: 09:00 a.m. - 08:00 p.m.",
      "address": "Calle 32 # 75 - 65",
      "webpage": "point.eco.co",
      "phone": "320 756 9056\n600 3592",
      "image": "https://static1.squarespace.com/static/5ba17396b98a786c7d2546e1/t/5bc8c329419202d82ffdf5de/1539883830990/Natura-FredWatford04-edit.jpg"
    },
    {
      "tags": [
        7, 2
      ],
      "type": 5,
      "longitude": -74.080934,
      "latitude": 4.909385,
      "name": "El Sitio",
      "hours": "Lunes a Jueves: 06:00 a.m. - 08:30 p.m. \nViernes y Sábados: 06:00 a.m. - 09:00 p.m. \nDomingos y Festivos: 09:00 a.m. - 08:00 p.m.",
      "address": "Calle 32 # 75 - 65",
      "webpage": "point.eco.co",
      "phone": "320 756 9056\n600 3592",
      "image": "https://whyy.org/wp-content/uploads/2018/05/owner-jp-teti-stands-behind-the-basement-bar-at-passyunk-avenue-a-philly-themed-dive-bar-in-london.original-e1526133272703-768x462.jpg"
    },
    {
      "tags": [
        2
      ],
      "type": 0,
      "longitude": -74.034985,
      "latitude": 4.60938,
      "name": "El Sitio",
      "hours": "Lunes a Jueves: 06:00 a.m. - 08:30 p.m. \nViernes y Sábados: 06:00 a.m. - 09:00 p.m. \nDomingos y Festivos: 09:00 a.m. - 08:00 p.m.",
      "address": "Calle 32 # 75 - 65",
      "webpage": "point.eco.co",
      "phone": "320 756 9056\n600 3592",
      "image": "https://media-cdn.tripadvisor.com/media/photo-s/0e/cc/0a/dc/restaurant-chocolat.jpg"
    },
    {
      "tags": [
        3, 1, 4
      ],
      "type": 1,
      "longitude": -73.954896,
      "latitude": 4.735809,
      "name": "El Sitio",
      "hours": "Lunes a Jueves: 06:00 a.m. - 08:30 p.m. \nViernes y Sábados: 06:00 a.m. - 09:00 p.m. \nDomingos y Festivos: 09:00 a.m. - 08:00 p.m.",
      "address": "Calle 32 # 75 - 65",
      "webpage": "point.eco.co",
      "phone": "320 756 9056\n600 3592",
      "image": "https://s-ec.bstatic.com/images/hotel/max1024x768/681/68184730.jpg"
    },
    {
      "tags": [
        7, 3
      ],
      "type": 2,
      "longitude": -74.038094,
      "latitude": 4.689340,
      "name": "El Sitio",
      "hours": "Lunes a Jueves: 06:00 a.m. - 08:30 p.m. \nViernes y Sábados: 06:00 a.m. - 09:00 p.m. \nDomingos y Festivos: 09:00 a.m. - 08:00 p.m.",
      "address": "Calle 32 # 75 - 65",
      "webpage": "point.eco.co",
      "phone": "320 756 9056\n600 3592",
      "image": "https://www.retailgazette.co.uk/wp/wp-content/uploads/UNP-McCann-39838-Aldi-Balham.001-1.jpg"
    },
    {
      "tags": [
        8, 3
      ],
      "type": 3,
      "longitude": -74.09844,
      "latitude": 4.643098,
      "name": "El Sitio",
      "hours": "Lunes a Jueves: 06:00 a.m. - 08:30 p.m. \nViernes y Sábados: 06:00 a.m. - 09:00 p.m. \nDomingos y Festivos: 09:00 a.m. - 08:00 p.m.",
      "address": "Calle 32 # 75 - 65",
      "webpage": "point.eco.co",
      "phone": "320 756 9056\n600 3592",
      "image": "https://experienceluxury.co/wp-content/uploads/2016/08/private-cinema.jpg"
    },
    {
      "tags": [
        4, 9, 6
      ],
      "type": 4,
      "longitude": -74.093480,
      "latitude": 4.7348096,
      "name": "El Sitio",
      "hours": "Lunes a Jueves: 06:00 a.m. - 08:30 p.m. \nViernes y Sábados: 06:00 a.m. - 09:00 p.m. \nDomingos y Festivos: 09:00 a.m. - 08:00 p.m.",
      "address": "Calle 32 # 75 - 65",
      "webpage": "point.eco.co",
      "phone": "320 756 9056\n600 3592",
      "image": "https://static1.squarespace.com/static/5ba17396b98a786c7d2546e1/t/5bc8c329419202d82ffdf5de/1539883830990/Natura-FredWatford04-edit.jpg"
    },
    {
      "tags": [
        6, 3, 8, 0, 2
      ],
      "type": 5,
      "longitude": -74.093480,
      "latitude": 4.704893,
      "name": "El Sitio",
      "hours": "Lunes a Jueves: 06:00 a.m. - 08:30 p.m. \nViernes y Sábados: 06:00 a.m. - 09:00 p.m. \nDomingos y Festivos: 09:00 a.m. - 08:00 p.m.",
      "address": "Calle 32 # 75 - 65",
      "webpage": "point.eco.co",
      "phone": "320 756 9056\n600 3592"
    }
    
  ],
  "businessTypes": [
    {
      "ENG": "Restaurant",
      "ENGplural": "Restaurants",
      "ESP": "Restaurante",
      "ESPplural": "Restaurantes"
    },
    {
      "ENG": "Hotel",
      "ENGplural": "Hotels",
      "ESP": "Hotel",
      "ESPplural": "Hoteles"
    },
    {
      "ENG": "Store",
      "ENGplural": "Stores",
      "ESP": "Tienda",
      "ESPplural": "Tiendas"
    },
    {
      "ENG": "Cinema",
      "ENGplural": "Cinemas",
      "ESP": "Cine",
      "ESPplural": "Cines"
    },
    {
      "ENG": "Cafe",
      "ENGplural": "Cafes",
      "ESP": "Café",
      "ESPplural": "Cafés"
    },
    {
      "ENG": "Bar",
      "ENGplural": "Bars",
      "ESP": "Bar",
      "ESPplural": "Bares"
    }
  ],
  "ecoTags": [
    {
      "ENG": "No Straws",
      "ESP": "Sin Pitillos"
    },
    {
      "ENG": "No Plastic Bags",
      "ESP": "Sin Bolsas Plásticas"
    },
    {
      "ENG": "Recycled Materials",
      "ESP": "Materiales Reciclados"
    },
    {
      "ENG": "Organic Food",
      "ESP": "Comida Orgánica"
    },
    {
      "ENG": "Vegetarian",
      "ESP": "Vegetariano"
    },
    {
      "ENG": "Vegan",
      "ESP": "Vegano"
    },
    {
      "ENG": "Eco-facilities",
      "ESP": "Eco-instalaciones"
    },
    {
      "ENG": "LEED Certified",
      "ESP": "Certificación LEED"
    },
    {
      "ENG": "Organic Products",
      "ESP": "Productos Orgánicos"
    }
  ]
}
